[
    {
        "name": "Badakhshan",
        "country_id": 1,
        "country_code": "AF",
        "country_name": "Afghanistan",
        "state_code": "BDS",
        "type": null,
        "latitude": "36.73477250",
        "longitude": "70.81199530"
    },
    {
        "name": "Badghis",
        "country_id": 1,
        "country_code": "AF",
        "country_name": "Afghanistan",
        "state_code": "BDG",
        "type": null,
        "latitude": "35.16713390",
        "longitude": "63.76953840"
    },
    {
        "name": "Baghlan",
        "country_id": 1,
        "country_code": "AF",
        "country_name": "Afghanistan",
        "state_code": "BGL",
        "type": null,
        "latitude": "36.17890260",
        "longitude": "68.74530640"
    },
    {
        "name": "Balkh",
        "country_id": 1,
        "country_code": "AF",
        "country_name": "Afghanistan",
        "state_code": "BAL",
        "type": null,
        "latitude": "36.75506030",
        "longitude": "66.89753720"
    },
    {
        "name": "Bamyan",
        "country_id": 1,
        "country_code": "AF",
        "country_name": "Afghanistan",
        "state_code": "BAM",
        "type": null,
        "latitude": "34.81000670",
        "longitude": "67.82121040"
    },
    {
        "name": "Daykundi",
        "country_id": 1,
        "country_code": "AF",
        "country_name": "Afghanistan",
        "state_code": "DAY",
        "type": null,
        "latitude": "33.66949500",
        "longitude": "66.04635340"
    },
    {
        "name": "Farah",
        "country_id": 1,
        "country_code": "AF",
        "country_name": "Afghanistan",
        "state_code": "FRA",
        "type": null,
        "latitude": "32.49532800",
        "longitude": "62.26266270"
    },
    {
        "name": "Faryab",
        "country_id": 1,
        "country_code": "AF",
        "country_name": "Afghanistan",
        "state_code": "FYB",
        "type": null,
        "latitude": "36.07956130",
        "longitude": "64.90595500"
    },
    {
        "name": "Ghazni",
        "country_id": 1,
        "country_code": "AF",
        "country_name": "Afghanistan",
        "state_code": "GHA",
        "type": null,
        "latitude": "33.54505870",
        "longitude": "68.41739720"
    },
    {
        "name": "Ghōr",
        "country_id": 1,
        "country_code": "AF",
        "country_name": "Afghanistan",
        "state_code": "GHO",
        "type": null,
        "latitude": "34.09957760",
        "longitude": "64.90595500"
    },
    {
        "name": "Helmand",
        "country_id": 1,
        "country_code": "AF",
        "country_name": "Afghanistan",
        "state_code": "HEL",
        "type": null,
        "latitude": "39.29893610",
        "longitude": "-76.61604720"
    },
    {
        "name": "Herat",
        "country_id": 1,
        "country_code": "AF",
        "country_name": "Afghanistan",
        "state_code": "HER",
        "type": null,
        "latitude": "34.35286500",
        "longitude": "62.20402870"
    },
    {
        "name": "Jowzjan",
        "country_id": 1,
        "country_code": "AF",
        "country_name": "Afghanistan",
        "state_code": "JOW",
        "type": null,
        "latitude": "36.89696920",
        "longitude": "65.66585680"
    },
    {
        "name": "Kabul",
        "country_id": 1,
        "country_code": "AF",
        "country_name": "Afghanistan",
        "state_code": "KAB",
        "type": null,
        "latitude": "34.55534940",
        "longitude": "69.20748600"
    },
    {
        "name": "Kandahar",
        "country_id": 1,
        "country_code": "AF",
        "country_name": "Afghanistan",
        "state_code": "KAN",
        "type": null,
        "latitude": "31.62887100",
        "longitude": "65.73717490"
    },
    {
        "name": "Kapisa",
        "country_id": 1,
        "country_code": "AF",
        "country_name": "Afghanistan",
        "state_code": "KAP",
        "type": null,
        "latitude": "34.98105720",
        "longitude": "69.62145620"
    },
    {
        "name": "Khost",
        "country_id": 1,
        "country_code": "AF",
        "country_name": "Afghanistan",
        "state_code": "KHO",
        "type": null,
        "latitude": "33.33384720",
        "longitude": "69.93716730"
    },
    {
        "name": "Kunar",
        "country_id": 1,
        "country_code": "AF",
        "country_name": "Afghanistan",
        "state_code": "KNR",
        "type": null,
        "latitude": "34.84658930",
        "longitude": "71.09731700"
    },
    {
        "name": "Kunduz Province",
        "country_id": 1,
        "country_code": "AF",
        "country_name": "Afghanistan",
        "state_code": "KDZ",
        "type": null,
        "latitude": "36.72855110",
        "longitude": "68.86789820"
    },
    {
        "name": "Laghman",
        "country_id": 1,
        "country_code": "AF",
        "country_name": "Afghanistan",
        "state_code": "LAG",
        "type": null,
        "latitude": "34.68976870",
        "longitude": "70.14558050"
    },
    {
        "name": "Logar",
        "country_id": 1,
        "country_code": "AF",
        "country_name": "Afghanistan",
        "state_code": "LOG",
        "type": null,
        "latitude": "34.01455180",
        "longitude": "69.19239160"
    },
    {
        "name": "Nangarhar",
        "country_id": 1,
        "country_code": "AF",
        "country_name": "Afghanistan",
        "state_code": "NAN",
        "type": null,
        "latitude": "34.17183130",
        "longitude": "70.62167940"
    },
    {
        "name": "Nimruz",
        "country_id": 1,
        "country_code": "AF",
        "country_name": "Afghanistan",
        "state_code": "NIM",
        "type": null,
        "latitude": "31.02614880",
        "longitude": "62.45041540"
    },
    {
        "name": "Nuristan",
        "country_id": 1,
        "country_code": "AF",
        "country_name": "Afghanistan",
        "state_code": "NUR",
        "type": null,
        "latitude": "35.32502230",
        "longitude": "70.90712360"
    },
    {
        "name": "Paktia",
        "country_id": 1,
        "country_code": "AF",
        "country_name": "Afghanistan",
        "state_code": "PIA",
        "type": null,
        "latitude": "33.70619900",
        "longitude": "69.38310790"
    },
    {
        "name": "Paktika",
        "country_id": 1,
        "country_code": "AF",
        "country_name": "Afghanistan",
        "state_code": "PKA",
        "type": null,
        "latitude": "32.26453860",
        "longitude": "68.52471490"
    },
    {
        "name": "Panjshir",
        "country_id": 1,
        "country_code": "AF",
        "country_name": "Afghanistan",
        "state_code": "PAN",
        "type": null,
        "latitude": "38.88023910",
        "longitude": "-77.17172380"
    },
    {
        "name": "Parwan",
        "country_id": 1,
        "country_code": "AF",
        "country_name": "Afghanistan",
        "state_code": "PAR",
        "type": null,
        "latitude": "34.96309770",
        "longitude": "68.81088490"
    },
    {
        "name": "Samangan",
        "country_id": 1,
        "country_code": "AF",
        "country_name": "Afghanistan",
        "state_code": "SAM",
        "type": null,
        "latitude": "36.31555060",
        "longitude": "67.96428630"
    },
    {
        "name": "Sar-e Pol",
        "country_id": 1,
        "country_code": "AF",
        "country_name": "Afghanistan",
        "state_code": "SAR",
        "type": null,
        "latitude": "36.21662800",
        "longitude": "65.93336000"
    },
    {
        "name": "Takhar",
        "country_id": 1,
        "country_code": "AF",
        "country_name": "Afghanistan",
        "state_code": "TAK",
        "type": null,
        "latitude": "36.66980130",
        "longitude": "69.47845410"
    },
    {
        "name": "Urozgan",
        "country_id": 1,
        "country_code": "AF",
        "country_name": "Afghanistan",
        "state_code": "URU",
        "type": null,
        "latitude": "32.92712870",
        "longitude": "66.14152630"
    },
    {
        "name": "Zabul",
        "country_id": 1,
        "country_code": "AF",
        "country_name": "Afghanistan",
        "state_code": "ZAB",
        "type": null,
        "latitude": "32.19187820",
        "longitude": "67.18944880"
    },
    {
        "name": "Berat County",
        "country_id": 3,
        "country_code": "AL",
        "country_name": "Albania",
        "state_code": "01",
        "type": null,
        "latitude": "40.69530120",
        "longitude": "20.04496620"
    },
    {
        "name": "Berat District",
        "country_id": 3,
        "country_code": "AL",
        "country_name": "Albania",
        "state_code": "BR",
        "type": null,
        "latitude": "40.70863770",
        "longitude": "19.94373140"
    },
    {
        "name": "Bulqizë District",
        "country_id": 3,
        "country_code": "AL",
        "country_name": "Albania",
        "state_code": "BU",
        "type": null,
        "latitude": "41.49425870",
        "longitude": "20.21471570"
    },
    {
        "name": "Delvinë District",
        "country_id": 3,
        "country_code": "AL",
        "country_name": "Albania",
        "state_code": "DL",
        "type": null,
        "latitude": "39.94813640",
        "longitude": "20.09558910"
    },
    {
        "name": "Devoll District",
        "country_id": 3,
        "country_code": "AL",
        "country_name": "Albania",
        "state_code": "DV",
        "type": null,
        "latitude": "40.64473470",
        "longitude": "20.95066360"
    },
    {
        "name": "Dibër County",
        "country_id": 3,
        "country_code": "AL",
        "country_name": "Albania",
        "state_code": "09",
        "type": null,
        "latitude": "41.58881630",
        "longitude": "20.23556470"
    },
    {
        "name": "Dibër District",
        "country_id": 3,
        "country_code": "AL",
        "country_name": "Albania",
        "state_code": "DI",
        "type": null,
        "latitude": "41.58881630",
        "longitude": "20.23556470"
    },
    {
        "name": "Durrës County",
        "country_id": 3,
        "country_code": "AL",
        "country_name": "Albania",
        "state_code": "02",
        "type": null,
        "latitude": "41.50809720",
        "longitude": "19.61631850"
    },
    {
        "name": "Durrës District",
        "country_id": 3,
        "country_code": "AL",
        "country_name": "Albania",
        "state_code": "DR",
        "type": null,
        "latitude": "41.37065170",
        "longitude": "19.52110630"
    },
    {
        "name": "Elbasan County",
        "country_id": 3,
        "country_code": "AL",
        "country_name": "Albania",
        "state_code": "03",
        "type": null,
        "latitude": "41.12666720",
        "longitude": "20.23556470"
    },
    {
        "name": "Fier County",
        "country_id": 3,
        "country_code": "AL",
        "country_name": "Albania",
        "state_code": "04",
        "type": null,
        "latitude": "40.91913920",
        "longitude": "19.66393090"
    },
    {
        "name": "Fier District",
        "country_id": 3,
        "country_code": "AL",
        "country_name": "Albania",
        "state_code": "FR",
        "type": null,
        "latitude": "40.72750400",
        "longitude": "19.56275960"
    },
    {
        "name": "Gjirokastër County",
        "country_id": 3,
        "country_code": "AL",
        "country_name": "Albania",
        "state_code": "05",
        "type": null,
        "latitude": "40.06728740",
        "longitude": "20.10452290"
    },
    {
        "name": "Gjirokastër District",
        "country_id": 3,
        "country_code": "AL",
        "country_name": "Albania",
        "state_code": "GJ",
        "type": null,
        "latitude": "40.06728740",
        "longitude": "20.10452290"
    },
    {
        "name": "Gramsh District",
        "country_id": 3,
        "country_code": "AL",
        "country_name": "Albania",
        "state_code": "GR",
        "type": null,
        "latitude": "40.86698730",
        "longitude": "20.18493230"
    },
    {
        "name": "Has District",
        "country_id": 3,
        "country_code": "AL",
        "country_name": "Albania",
        "state_code": "HA",
        "type": null,
        "latitude": "42.79013360",
        "longitude": "-83.61220120"
    },
    {
        "name": "Kavajë District",
        "country_id": 3,
        "country_code": "AL",
        "country_name": "Albania",
        "state_code": "KA",
        "type": null,
        "latitude": "41.18445290",
        "longitude": "19.56275960"
    },
    {
        "name": "Kolonjë District",
        "country_id": 3,
        "country_code": "AL",
        "country_name": "Albania",
        "state_code": "ER",
        "type": null,
        "latitude": "40.33732620",
        "longitude": "20.67946760"
    },
    {
        "name": "Korçë County",
        "country_id": 3,
        "country_code": "AL",
        "country_name": "Albania",
        "state_code": "06",
        "type": null,
        "latitude": "40.59056700",
        "longitude": "20.61689210"
    },
    {
        "name": "Korçë District",
        "country_id": 3,
        "country_code": "AL",
        "country_name": "Albania",
        "state_code": "KO",
        "type": null,
        "latitude": "40.59056700",
        "longitude": "20.61689210"
    },
    {
        "name": "Krujë District",
        "country_id": 3,
        "country_code": "AL",
        "country_name": "Albania",
        "state_code": "KR",
        "type": null,
        "latitude": "41.50947650",
        "longitude": "19.77107320"
    },
    {
        "name": "Kuçovë District",
        "country_id": 3,
        "country_code": "AL",
        "country_name": "Albania",
        "state_code": "KC",
        "type": null,
        "latitude": "40.78370630",
        "longitude": "19.87823480"
    },
    {
        "name": "Kukës County",
        "country_id": 3,
        "country_code": "AL",
        "country_name": "Albania",
        "state_code": "07",
        "type": null,
        "latitude": "42.08074640",
        "longitude": "20.41429230"
    },
    {
        "name": "Kukës District",
        "country_id": 3,
        "country_code": "AL",
        "country_name": "Albania",
        "state_code": "KU",
        "type": null,
        "latitude": "42.08074640",
        "longitude": "20.41429230"
    },
    {
        "name": "Kurbin District",
        "country_id": 3,
        "country_code": "AL",
        "country_name": "Albania",
        "state_code": "KB",
        "type": null,
        "latitude": "41.64126440",
        "longitude": "19.70559500"
    },
    {
        "name": "Lezhë County",
        "country_id": 3,
        "country_code": "AL",
        "country_name": "Albania",
        "state_code": "08",
        "type": null,
        "latitude": "41.78137590",
        "longitude": "19.80679160"
    },
    {
        "name": "Lezhë District",
        "country_id": 3,
        "country_code": "AL",
        "country_name": "Albania",
        "state_code": "LE",
        "type": null,
        "latitude": "41.78607300",
        "longitude": "19.64607580"
    },
    {
        "name": "Librazhd District",
        "country_id": 3,
        "country_code": "AL",
        "country_name": "Albania",
        "state_code": "LB",
        "type": null,
        "latitude": "41.18292320",
        "longitude": "20.31747690"
    },
    {
        "name": "Lushnjë District",
        "country_id": 3,
        "country_code": "AL",
        "country_name": "Albania",
        "state_code": "LU",
        "type": null,
        "latitude": "40.94198300",
        "longitude": "19.69964280"
    },
    {
        "name": "Malësi e Madhe District",
        "country_id": 3,
        "country_code": "AL",
        "country_name": "Albania",
        "state_code": "MM",
        "type": null,
        "latitude": "42.42451730",
        "longitude": "19.61631850"
    },
    {
        "name": "Mallakastër District",
        "country_id": 3,
        "country_code": "AL",
        "country_name": "Albania",
        "state_code": "MK",
        "type": null,
        "latitude": "40.52733760",
        "longitude": "19.78297910"
    },
    {
        "name": "Mat District",
        "country_id": 3,
        "country_code": "AL",
        "country_name": "Albania",
        "state_code": "MT",
        "type": null,
        "latitude": "41.59376750",
        "longitude": "19.99732440"
    },
    {
        "name": "Mirditë District",
        "country_id": 3,
        "country_code": "AL",
        "country_name": "Albania",
        "state_code": "MR",
        "type": null,
        "latitude": "41.76428600",
        "longitude": "19.90205090"
    },
    {
        "name": "Peqin District",
        "country_id": 3,
        "country_code": "AL",
        "country_name": "Albania",
        "state_code": "PQ",
        "type": null,
        "latitude": "41.04709020",
        "longitude": "19.75023840"
    },
    {
        "name": "Përmet District",
        "country_id": 3,
        "country_code": "AL",
        "country_name": "Albania",
        "state_code": "PR",
        "type": null,
        "latitude": "40.23618370",
        "longitude": "20.35173340"
    },
    {
        "name": "Pogradec District",
        "country_id": 3,
        "country_code": "AL",
        "country_name": "Albania",
        "state_code": "PG",
        "type": null,
        "latitude": "40.90153140",
        "longitude": "20.65562890"
    },
    {
        "name": "Pukë District",
        "country_id": 3,
        "country_code": "AL",
        "country_name": "Albania",
        "state_code": "PU",
        "type": null,
        "latitude": "42.04697720",
        "longitude": "19.89609680"
    },
    {
        "name": "Sarandë District",
        "country_id": 3,
        "country_code": "AL",
        "country_name": "Albania",
        "state_code": "SR",
        "type": null,
        "latitude": "39.85921190",
        "longitude": "20.02710010"
    },
    {
        "name": "Shkodër County",
        "country_id": 3,
        "country_code": "AL",
        "country_name": "Albania",
        "state_code": "10",
        "type": null,
        "latitude": "42.15037100",
        "longitude": "19.66393090"
    },
    {
        "name": "Shkodër District",
        "country_id": 3,
        "country_code": "AL",
        "country_name": "Albania",
        "state_code": "SH",
        "type": null,
        "latitude": "42.06929850",
        "longitude": "19.50325590"
    },
    {
        "name": "Skrapar District",
        "country_id": 3,
        "country_code": "AL",
        "country_name": "Albania",
        "state_code": "SK",
        "type": null,
        "latitude": "40.53499460",
        "longitude": "20.28322170"
    },
    {
        "name": "Tepelenë District",
        "country_id": 3,
        "country_code": "AL",
        "country_name": "Albania",
        "state_code": "TE",
        "type": null,
        "latitude": "40.29666320",
        "longitude": "20.01816730"
    },
    {
        "name": "Tirana County",
        "country_id": 3,
        "country_code": "AL",
        "country_name": "Albania",
        "state_code": "11",
        "type": null,
        "latitude": "41.24275980",
        "longitude": "19.80679160"
    },
    {
        "name": "Tirana District",
        "country_id": 3,
        "country_code": "AL",
        "country_name": "Albania",
        "state_code": "TR",
        "type": null,
        "latitude": "41.32754590",
        "longitude": "19.81869820"
    },
    {
        "name": "Tropojë District",
        "country_id": 3,
        "country_code": "AL",
        "country_name": "Albania",
        "state_code": "TP",
        "type": null,
        "latitude": "42.39821510",
        "longitude": "20.16259550"
    },
    {
        "name": "Vlorë County",
        "country_id": 3,
        "country_code": "AL",
        "country_name": "Albania",
        "state_code": "12",
        "type": null,
        "latitude": "40.15009600",
        "longitude": "19.80679160"
    },
    {
        "name": "Vlorë District",
        "country_id": 3,
        "country_code": "AL",
        "country_name": "Albania",
        "state_code": "VL",
        "type": null,
        "latitude": "40.46606680",
        "longitude": "19.49135600"
    },
    {
        "name": "Adrar",
        "country_id": 4,
        "country_code": "DZ",
        "country_name": "Algeria",
        "state_code": "01",
        "type": null,
        "latitude": "26.41813100",
        "longitude": "-0.60147170"
    },
    {
        "name": "Aïn Defla",
        "country_id": 4,
        "country_code": "DZ",
        "country_name": "Algeria",
        "state_code": "44",
        "type": null,
        "latitude": "36.25094290",
        "longitude": "1.93938150"
    },
    {
        "name": "Aïn Témouchent",
        "country_id": 4,
        "country_code": "DZ",
        "country_name": "Algeria",
        "state_code": "46",
        "type": null,
        "latitude": "35.29926980",
        "longitude": "-1.13927920"
    },
    {
        "name": "Algiers",
        "country_id": 4,
        "country_code": "DZ",
        "country_name": "Algeria",
        "state_code": "16",
        "type": null,
        "latitude": "36.69972940",
        "longitude": "3.05761990"
    },
    {
        "name": "Annaba",
        "country_id": 4,
        "country_code": "DZ",
        "country_name": "Algeria",
        "state_code": "23",
        "type": null,
        "latitude": "36.80205080",
        "longitude": "7.52472430"
    },
    {
        "name": "Batna",
        "country_id": 4,
        "country_code": "DZ",
        "country_name": "Algeria",
        "state_code": "05",
        "type": null,
        "latitude": "35.59659540",
        "longitude": "5.89871390"
    },
    {
        "name": "Béchar",
        "country_id": 4,
        "country_code": "DZ",
        "country_name": "Algeria",
        "state_code": "08",
        "type": null,
        "latitude": "31.62380980",
        "longitude": "-2.21624430"
    },
    {
        "name": "Béjaïa",
        "country_id": 4,
        "country_code": "DZ",
        "country_name": "Algeria",
        "state_code": "06",
        "type": null,
        "latitude": "36.75152580",
        "longitude": "5.05568370"
    },
    {
        "name": "Béni Abbès",
        "country_id": 4,
        "country_code": "DZ",
        "country_name": "Algeria",
        "state_code": "53",
        "type": null,
        "latitude": "30.08310420",
        "longitude": "-2.83450520"
    },
    {
        "name": "Biskra",
        "country_id": 4,
        "country_code": "DZ",
        "country_name": "Algeria",
        "state_code": "07",
        "type": null,
        "latitude": "34.84494370",
        "longitude": "5.72485670"
    },
    {
        "name": "Blida",
        "country_id": 4,
        "country_code": "DZ",
        "country_name": "Algeria",
        "state_code": "09",
        "type": null,
        "latitude": "36.53112300",
        "longitude": "2.89762540"
    },
    {
        "name": "Bordj Baji Mokhtar",
        "country_id": 4,
        "country_code": "DZ",
        "country_name": "Algeria",
        "state_code": "52",
        "type": null,
        "latitude": "22.96633500",
        "longitude": "-3.94727320"
    },
    {
        "name": "Bordj Bou Arréridj",
        "country_id": 4,
        "country_code": "DZ",
        "country_name": "Algeria",
        "state_code": "34",
        "type": null,
        "latitude": "36.07399250",
        "longitude": "4.76302710"
    },
    {
        "name": "Bouïra",
        "country_id": 4,
        "country_code": "DZ",
        "country_name": "Algeria",
        "state_code": "10",
        "type": null,
        "latitude": "36.36918460",
        "longitude": "3.90061940"
    },
    {
        "name": "Boumerdès",
        "country_id": 4,
        "country_code": "DZ",
        "country_name": "Algeria",
        "state_code": "35",
        "type": null,
        "latitude": "36.68395590",
        "longitude": "3.62178020"
    },
    {
        "name": "Chlef",
        "country_id": 4,
        "country_code": "DZ",
        "country_name": "Algeria",
        "state_code": "02",
        "type": null,
        "latitude": "36.16935150",
        "longitude": "1.28910360"
    },
    {
        "name": "Constantine",
        "country_id": 4,
        "country_code": "DZ",
        "country_name": "Algeria",
        "state_code": "25",
        "type": null,
        "latitude": "36.33739110",
        "longitude": "6.66381200"
    },
    {
        "name": "Djanet",
        "country_id": 4,
        "country_code": "DZ",
        "country_name": "Algeria",
        "state_code": "56",
        "type": null,
        "latitude": "23.83108720",
        "longitude": "8.70046720"
    },
    {
        "name": "Djelfa",
        "country_id": 4,
        "country_code": "DZ",
        "country_name": "Algeria",
        "state_code": "17",
        "type": null,
        "latitude": "34.67039560",
        "longitude": "3.25037610"
    },
    {
        "name": "El Bayadh",
        "country_id": 4,
        "country_code": "DZ",
        "country_name": "Algeria",
        "state_code": "32",
        "type": null,
        "latitude": "32.71488240",
        "longitude": "0.90566230"
    },
    {
        "name": "El M'ghair",
        "country_id": 4,
        "country_code": "DZ",
        "country_name": "Algeria",
        "state_code": "49",
        "type": null,
        "latitude": "33.95405610",
        "longitude": "5.13464180"
    },
    {
        "name": "El Menia",
        "country_id": 4,
        "country_code": "DZ",
        "country_name": "Algeria",
        "state_code": "50",
        "type": null,
        "latitude": "31.36422500",
        "longitude": "2.57844950"
    },
    {
        "name": "El Oued",
        "country_id": 4,
        "country_code": "DZ",
        "country_name": "Algeria",
        "state_code": "39",
        "type": null,
        "latitude": "33.36781100",
        "longitude": "6.85165110"
    },
    {
        "name": "El Tarf",
        "country_id": 4,
        "country_code": "DZ",
        "country_name": "Algeria",
        "state_code": "36",
        "type": null,
        "latitude": "36.75766780",
        "longitude": "8.30763430"
    },
    {
        "name": "Ghardaïa",
        "country_id": 4,
        "country_code": "DZ",
        "country_name": "Algeria",
        "state_code": "47",
        "type": null,
        "latitude": "32.49437410",
        "longitude": "3.64446000"
    },
    {
        "name": "Guelma",
        "country_id": 4,
        "country_code": "DZ",
        "country_name": "Algeria",
        "state_code": "24",
        "type": null,
        "latitude": "36.46274440",
        "longitude": "7.43308330"
    },
    {
        "name": "Illizi",
        "country_id": 4,
        "country_code": "DZ",
        "country_name": "Algeria",
        "state_code": "33",
        "type": null,
        "latitude": "26.16900050",
        "longitude": "8.48424650"
    },
    {
        "name": "In Guezzam",
        "country_id": 4,
        "country_code": "DZ",
        "country_name": "Algeria",
        "state_code": "58",
        "type": null,
        "latitude": "20.38643230",
        "longitude": "4.77893940"
    },
    {
        "name": "In Salah",
        "country_id": 4,
        "country_code": "DZ",
        "country_name": "Algeria",
        "state_code": "57",
        "type": null,
        "latitude": "27.21492290",
        "longitude": "1.84843960"
    },
    {
        "name": "Jijel",
        "country_id": 4,
        "country_code": "DZ",
        "country_name": "Algeria",
        "state_code": "18",
        "type": null,
        "latitude": "36.71796810",
        "longitude": "5.98325770"
    },
    {
        "name": "Khenchela",
        "country_id": 4,
        "country_code": "DZ",
        "country_name": "Algeria",
        "state_code": "40",
        "type": null,
        "latitude": "35.42694040",
        "longitude": "7.14601550"
    },
    {
        "name": "Laghouat",
        "country_id": 4,
        "country_code": "DZ",
        "country_name": "Algeria",
        "state_code": "03",
        "type": null,
        "latitude": "33.80783410",
        "longitude": "2.86282940"
    },
    {
        "name": "M'Sila",
        "country_id": 4,
        "country_code": "DZ",
        "country_name": "Algeria",
        "state_code": "28",
        "type": null,
        "latitude": "35.71866460",
        "longitude": "4.52334230"
    },
    {
        "name": "Mascara",
        "country_id": 4,
        "country_code": "DZ",
        "country_name": "Algeria",
        "state_code": "29",
        "type": null,
        "latitude": "35.39041250",
        "longitude": "0.14949880"
    },
    {
        "name": "Médéa",
        "country_id": 4,
        "country_code": "DZ",
        "country_name": "Algeria",
        "state_code": "26",
        "type": null,
        "latitude": "36.26370780",
        "longitude": "2.75878570"
    },
    {
        "name": "Mila",
        "country_id": 4,
        "country_code": "DZ",
        "country_name": "Algeria",
        "state_code": "43",
        "type": null,
        "latitude": "36.36479570",
        "longitude": "6.15269850"
    },
    {
        "name": "Mostaganem",
        "country_id": 4,
        "country_code": "DZ",
        "country_name": "Algeria",
        "state_code": "27",
        "type": null,
        "latitude": "35.95830540",
        "longitude": "0.33718890"
    },
    {
        "name": "Naama",
        "country_id": 4,
        "country_code": "DZ",
        "country_name": "Algeria",
        "state_code": "45",
        "type": null,
        "latitude": "33.26673170",
        "longitude": "-0.31286590"
    },
    {
        "name": "Oran",
        "country_id": 4,
        "country_code": "DZ",
        "country_name": "Algeria",
        "state_code": "31",
        "type": null,
        "latitude": "35.60823510",
        "longitude": "-0.56360900"
    },
    {
        "name": "Ouargla",
        "country_id": 4,
        "country_code": "DZ",
        "country_name": "Algeria",
        "state_code": "30",
        "type": null,
        "latitude": "32.22648630",
        "longitude": "5.72998210"
    },
    {
        "name": "Ouled Djellal",
        "country_id": 4,
        "country_code": "DZ",
        "country_name": "Algeria",
        "state_code": "51",
        "type": null,
        "latitude": "34.41782210",
        "longitude": "4.96858430"
    },
    {
        "name": "Oum El Bouaghi",
        "country_id": 4,
        "country_code": "DZ",
        "country_name": "Algeria",
        "state_code": "04",
        "type": null,
        "latitude": "35.86887890",
        "longitude": "7.11082660"
    },
    {
        "name": "Relizane",
        "country_id": 4,
        "country_code": "DZ",
        "country_name": "Algeria",
        "state_code": "48",
        "type": null,
        "latitude": "35.73834050",
        "longitude": "0.75328090"
    },
    {
        "name": "Saïda",
        "country_id": 4,
        "country_code": "DZ",
        "country_name": "Algeria",
        "state_code": "20",
        "type": null,
        "latitude": "34.84152070",
        "longitude": "0.14560550"
    },
    {
        "name": "Sétif",
        "country_id": 4,
        "country_code": "DZ",
        "country_name": "Algeria",
        "state_code": "19",
        "type": null,
        "latitude": "36.30733890",
        "longitude": "5.56172790"
    },
    {
        "name": "Sidi Bel Abbès",
        "country_id": 4,
        "country_code": "DZ",
        "country_name": "Algeria",
        "state_code": "22",
        "type": null,
        "latitude": "34.68060240",
        "longitude": "-1.09994950"
    },
    {
        "name": "Skikda",
        "country_id": 4,
        "country_code": "DZ",
        "country_name": "Algeria",
        "state_code": "21",
        "type": null,
        "latitude": "36.67211980",
        "longitude": "6.83509990"
    },
    {
        "name": "Souk Ahras",
        "country_id": 4,
        "country_code": "DZ",
        "country_name": "Algeria",
        "state_code": "41",
        "type": null,
        "latitude": "36.28010620",
        "longitude": "7.93840330"
    },
    {
        "name": "Tamanghasset",
        "country_id": 4,
        "country_code": "DZ",
        "country_name": "Algeria",
        "state_code": "11",
        "type": null,
        "latitude": "22.79029720",
        "longitude": "5.51932680"
    },
    {
        "name": "Tébessa",
        "country_id": 4,
        "country_code": "DZ",
        "country_name": "Algeria",
        "state_code": "12",
        "type": null,
        "latitude": "35.12906910",
        "longitude": "7.95928630"
    },
    {
        "name": "Tiaret",
        "country_id": 4,
        "country_code": "DZ",
        "country_name": "Algeria",
        "state_code": "14",
        "type": null,
        "latitude": "35.37086890",
        "longitude": "1.32178520"
    },
    {
        "name": "Timimoun",
        "country_id": 4,
        "country_code": "DZ",
        "country_name": "Algeria",
        "state_code": "54",
        "type": null,
        "latitude": "29.67890600",
        "longitude": "0.50046080"
    },
    {
        "name": "Tindouf",
        "country_id": 4,
        "country_code": "DZ",
        "country_name": "Algeria",
        "state_code": "37",
        "type": null,
        "latitude": "27.80631190",
        "longitude": "-5.72998210"
    },
    {
        "name": "Tipasa",
        "country_id": 4,
        "country_code": "DZ",
        "country_name": "Algeria",
        "state_code": "42",
        "type": null,
        "latitude": "36.54626500",
        "longitude": "2.18432850"
    },
    {
        "name": "Tissemsilt",
        "country_id": 4,
        "country_code": "DZ",
        "country_name": "Algeria",
        "state_code": "38",
        "type": null,
        "latitude": "35.60537810",
        "longitude": "1.81309800"
    },
    {
        "name": "Tizi Ouzou",
        "country_id": 4,
        "country_code": "DZ",
        "country_name": "Algeria",
        "state_code": "15",
        "type": null,
        "latitude": "36.70691100",
        "longitude": "4.23333550"
    },
    {
        "name": "Tlemcen",
        "country_id": 4,
        "country_code": "DZ",
        "country_name": "Algeria",
        "state_code": "13",
        "type": null,
        "latitude": "34.67802840",
        "longitude": "-1.36621600"
    },
    {
        "name": "Touggourt",
        "country_id": 4,
        "country_code": "DZ",
        "country_name": "Algeria",
        "state_code": "55",
        "type": null,
        "latitude": "33.12484760",
        "longitude": "5.78327150"
    },
    {
        "name": "Andorra la Vella",
        "country_id": 6,
        "country_code": "AD",
        "country_name": "Andorra",
        "state_code": "07",
        "type": null,
        "latitude": "42.50631740",
        "longitude": "1.52183550"
    },
    {
        "name": "Canillo",
        "country_id": 6,
        "country_code": "AD",
        "country_name": "Andorra",
        "state_code": "02",
        "type": null,
        "latitude": "42.59782490",
        "longitude": "1.65663770"
    },
    {
        "name": "Encamp",
        "country_id": 6,
        "country_code": "AD",
        "country_name": "Andorra",
        "state_code": "03",
        "type": null,
        "latitude": "42.53597640",
        "longitude": "1.58367730"
    },
    {
        "name": "Escaldes-Engordany",
        "country_id": 6,
        "country_code": "AD",
        "country_name": "Andorra",
        "state_code": "08",
        "type": null,
        "latitude": "42.49093790",
        "longitude": "1.58869660"
    },
    {
        "name": "La Massana",
        "country_id": 6,
        "country_code": "AD",
        "country_name": "Andorra",
        "state_code": "04",
        "type": null,
        "latitude": "42.54562500",
        "longitude": "1.51473920"
    },
    {
        "name": "Ordino",
        "country_id": 6,
        "country_code": "AD",
        "country_name": "Andorra",
        "state_code": "05",
        "type": null,
        "latitude": "42.59944330",
        "longitude": "1.54023270"
    },
    {
        "name": "Sant Julià de Lòria",
        "country_id": 6,
        "country_code": "AD",
        "country_name": "Andorra",
        "state_code": "06",
        "type": null,
        "latitude": "42.45296310",
        "longitude": "1.49182350"
    },
    {
        "name": "Bengo Province",
        "country_id": 7,
        "country_code": "AO",
        "country_name": "Angola",
        "state_code": "BGO",
        "type": null,
        "latitude": "-9.10422570",
        "longitude": "13.72891670"
    },
    {
        "name": "Benguela Province",
        "country_id": 7,
        "country_code": "AO",
        "country_name": "Angola",
        "state_code": "BGU",
        "type": null,
        "latitude": "-12.80037440",
        "longitude": "13.91439900"
    },
    {
        "name": "Bié Province",
        "country_id": 7,
        "country_code": "AO",
        "country_name": "Angola",
        "state_code": "BIE",
        "type": null,
        "latitude": "-12.57279070",
        "longitude": "17.66888700"
    },
    {
        "name": "Cabinda Province",
        "country_id": 7,
        "country_code": "AO",
        "country_name": "Angola",
        "state_code": "CAB",
        "type": null,
        "latitude": "-5.02487490",
        "longitude": "12.34638750"
    },
    {
        "name": "Cuando Cubango Province",
        "country_id": 7,
        "country_code": "AO",
        "country_name": "Angola",
        "state_code": "CCU",
        "type": null,
        "latitude": "-16.41808240",
        "longitude": "18.80761950"
    },
    {
        "name": "Cuanza Norte Province",
        "country_id": 7,
        "country_code": "AO",
        "country_name": "Angola",
        "state_code": "CNO",
        "type": null,
        "latitude": "-9.23985130",
        "longitude": "14.65878210"
    },
    {
        "name": "Cuanza Sul",
        "country_id": 7,
        "country_code": "AO",
        "country_name": "Angola",
        "state_code": "CUS",
        "type": null,
        "latitude": "-10.59519100",
        "longitude": "15.40680790"
    },
    {
        "name": "Cunene Province",
        "country_id": 7,
        "country_code": "AO",
        "country_name": "Angola",
        "state_code": "CNN",
        "type": null,
        "latitude": "-16.28022210",
        "longitude": "16.15809370"
    },
    {
        "name": "Huambo Province",
        "country_id": 7,
        "country_code": "AO",
        "country_name": "Angola",
        "state_code": "HUA",
        "type": null,
        "latitude": "-12.52682210",
        "longitude": "15.59433880"
    },
    {
        "name": "Huíla Province",
        "country_id": 7,
        "country_code": "AO",
        "country_name": "Angola",
        "state_code": "HUI",
        "type": null,
        "latitude": "-14.92805530",
        "longitude": "14.65878210"
    },
    {
        "name": "Luanda Province",
        "country_id": 7,
        "country_code": "AO",
        "country_name": "Angola",
        "state_code": "LUA",
        "type": null,
        "latitude": "-9.03508800",
        "longitude": "13.26634790"
    },
    {
        "name": "Lunda Norte Province",
        "country_id": 7,
        "country_code": "AO",
        "country_name": "Angola",
        "state_code": "LNO",
        "type": null,
        "latitude": "-8.35250220",
        "longitude": "19.18800470"
    },
    {
        "name": "Lunda Sul Province",
        "country_id": 7,
        "country_code": "AO",
        "country_name": "Angola",
        "state_code": "LSU",
        "type": null,
        "latitude": "-10.28665780",
        "longitude": "20.71224650"
    },
    {
        "name": "Malanje Province",
        "country_id": 7,
        "country_code": "AO",
        "country_name": "Angola",
        "state_code": "MAL",
        "type": null,
        "latitude": "-9.82511830",
        "longitude": "16.91225100"
    },
    {
        "name": "Moxico Province",
        "country_id": 7,
        "country_code": "AO",
        "country_name": "Angola",
        "state_code": "MOX",
        "type": null,
        "latitude": "-13.42935790",
        "longitude": "20.33088140"
    },
    {
        "name": "Uíge Province",
        "country_id": 7,
        "country_code": "AO",
        "country_name": "Angola",
        "state_code": "UIG",
        "type": null,
        "latitude": "-7.17367320",
        "longitude": "15.40680790"
    },
    {
        "name": "Zaire Province",
        "country_id": 7,
        "country_code": "AO",
        "country_name": "Angola",
        "state_code": "ZAI",
        "type": null,
        "latitude": "-6.57334580",
        "longitude": "13.17403480"
    },
    {
        "name": "Barbuda",
        "country_id": 10,
        "country_code": "AG",
        "country_name": "Antigua And Barbuda",
        "state_code": "10",
        "type": null,
        "latitude": "17.62662420",
        "longitude": "-61.77130280"
    },
    {
        "name": "Redonda",
        "country_id": 10,
        "country_code": "AG",
        "country_name": "Antigua And Barbuda",
        "state_code": "11",
        "type": null,
        "latitude": "16.93841600",
        "longitude": "-62.34551480"
    },
    {
        "name": "Saint George Parish",
        "country_id": 10,
        "country_code": "AG",
        "country_name": "Antigua And Barbuda",
        "state_code": "03",
        "type": null,
        "latitude": null,
        "longitude": null
    },
    {
        "name": "Saint John Parish",
        "country_id": 10,
        "country_code": "AG",
        "country_name": "Antigua And Barbuda",
        "state_code": "04",
        "type": null,
        "latitude": null,
        "longitude": null
    },
    {
        "name": "Saint Mary Parish",
        "country_id": 10,
        "country_code": "AG",
        "country_name": "Antigua And Barbuda",
        "state_code": "05",
        "type": null,
        "latitude": null,
        "longitude": null
    },
    {
        "name": "Saint Paul Parish",
        "country_id": 10,
        "country_code": "AG",
        "country_name": "Antigua And Barbuda",
        "state_code": "06",
        "type": null,
        "latitude": null,
        "longitude": null
    },
    {
        "name": "Saint Peter Parish",
        "country_id": 10,
        "country_code": "AG",
        "country_name": "Antigua And Barbuda",
        "state_code": "07",
        "type": null,
        "latitude": null,
        "longitude": null
    },
    {
        "name": "Saint Philip Parish",
        "country_id": 10,
        "country_code": "AG",
        "country_name": "Antigua And Barbuda",
        "state_code": "08",
        "type": null,
        "latitude": "40.43682580",
        "longitude": "-80.06855320"
    },
    {
        "name": "Buenos Aires",
        "country_id": 11,
        "country_code": "AR",
        "country_name": "Argentina",
        "state_code": "B",
        "type": "province",
        "latitude": "-37.20172850",
        "longitude": "-59.84106970"
    },
    {
        "name": "Catamarca",
        "country_id": 11,
        "country_code": "AR",
        "country_name": "Argentina",
        "state_code": "K",
        "type": "province",
        "latitude": "-28.47158770",
        "longitude": "-65.78772090"
    },
    {
        "name": "Chaco",
        "country_id": 11,
        "country_code": "AR",
        "country_name": "Argentina",
        "state_code": "H",
        "type": "province",
        "latitude": "-27.42571750",
        "longitude": "-59.02437840"
    },
    {
        "name": "Chubut",
        "country_id": 11,
        "country_code": "AR",
        "country_name": "Argentina",
        "state_code": "U",
        "type": "province",
        "latitude": "-43.29342460",
        "longitude": "-65.11148180"
    },
    {
        "name": "Ciudad Autónoma de Buenos Aires",
        "country_id": 11,
        "country_code": "AR",
        "country_name": "Argentina",
        "state_code": "C",
        "type": "city",
        "latitude": "-34.60368440",
        "longitude": "-58.38155910"
    },
    {
        "name": "Córdoba",
        "country_id": 11,
        "country_code": "AR",
        "country_name": "Argentina",
        "state_code": "X",
        "type": "province",
        "latitude": "-31.39928760",
        "longitude": "-64.26438420"
    },
    {
        "name": "Corrientes",
        "country_id": 11,
        "country_code": "AR",
        "country_name": "Argentina",
        "state_code": "W",
        "type": "province",
        "latitude": "-27.46921310",
        "longitude": "-58.83063490"
    },
    {
        "name": "Entre Ríos",
        "country_id": 11,
        "country_code": "AR",
        "country_name": "Argentina",
        "state_code": "E",
        "type": "province",
        "latitude": "-31.77466540",
        "longitude": "-60.49564610"
    },
    {
        "name": "Formosa",
        "country_id": 11,
        "country_code": "AR",
        "country_name": "Argentina",
        "state_code": "P",
        "type": "province",
        "latitude": "-26.18948040",
        "longitude": "-58.22428060"
    },
    {
        "name": "Jujuy",
        "country_id": 11,
        "country_code": "AR",
        "country_name": "Argentina",
        "state_code": "Y",
        "type": "province",
        "latitude": "-24.18433970",
        "longitude": "-65.30217700"
    },
    {
        "name": "La Pampa",
        "country_id": 11,
        "country_code": "AR",
        "country_name": "Argentina",
        "state_code": "L",
        "type": "province",
        "latitude": "-36.61475730",
        "longitude": "-64.28392090"
    },
    {
        "name": "La Rioja",
        "country_id": 11,
        "country_code": "AR",
        "country_name": "Argentina",
        "state_code": "F",
        "type": "province",
        "latitude": "-29.41937930",
        "longitude": "-66.85599320"
    },
    {
        "name": "Mendoza",
        "country_id": 11,
        "country_code": "AR",
        "country_name": "Argentina",
        "state_code": "M",
        "type": "province",
        "latitude": "-32.88945870",
        "longitude": "-68.84583860"
    },
    {
        "name": "Misiones",
        "country_id": 11,
        "country_code": "AR",
        "country_name": "Argentina",
        "state_code": "N",
        "type": "province",
        "latitude": "-27.42692550",
        "longitude": "-55.94670760"
    },
    {
        "name": "Neuquén",
        "country_id": 11,
        "country_code": "AR",
        "country_name": "Argentina",
        "state_code": "Q",
        "type": "province",
        "latitude": "-38.94587000",
        "longitude": "-68.07309250"
    },
    {
        "name": "Río Negro",
        "country_id": 11,
        "country_code": "AR",
        "country_name": "Argentina",
        "state_code": "R",
        "type": "province",
        "latitude": "-40.82614340",
        "longitude": "-63.02663390"
    },
    {
        "name": "Salta",
        "country_id": 11,
        "country_code": "AR",
        "country_name": "Argentina",
        "state_code": "A",
        "type": "province",
        "latitude": "-24.79976880",
        "longitude": "-65.41503670"
    },
    {
        "name": "San Juan",
        "country_id": 11,
        "country_code": "AR",
        "country_name": "Argentina",
        "state_code": "J",
        "type": "province",
        "latitude": "-31.53169760",
        "longitude": "-68.56769620"
    },
    {
        "name": "San Luis",
        "country_id": 11,
        "country_code": "AR",
        "country_name": "Argentina",
        "state_code": "D",
        "type": "province",
        "latitude": "-33.29620420",
        "longitude": "-66.32949480"
    },
    {
        "name": "Santa Cruz",
        "country_id": 11,
        "country_code": "AR",
        "country_name": "Argentina",
        "state_code": "Z",
        "type": "province",
        "latitude": "-51.63528210",
        "longitude": "-69.24743530"
    },
    {
        "name": "Santa Fe",
        "country_id": 11,
        "country_code": "AR",
        "country_name": "Argentina",
        "state_code": "S",
        "type": "province",
        "latitude": "-31.58551090",
        "longitude": "-60.72380160"
    },
    {
        "name": "Santiago del Estero",
        "country_id": 11,
        "country_code": "AR",
        "country_name": "Argentina",
        "state_code": "G",
        "type": "province",
        "latitude": "-27.78335740",
        "longitude": "-64.26416700"
    },
    {
        "name": "Tierra del Fuego",
        "country_id": 11,
        "country_code": "AR",
        "country_name": "Argentina",
        "state_code": "V",
        "type": "province",
        "latitude": "-54.80539980",
        "longitude": "-68.32420610"
    },
    {
        "name": "Tucumán",
        "country_id": 11,
        "country_code": "AR",
        "country_name": "Argentina",
        "state_code": "T",
        "type": "province",
        "latitude": "-26.82211270",
        "longitude": "-65.21929030"
    },
    {
        "name": "Aragatsotn Region",
        "country_id": 12,
        "country_code": "AM",
        "country_name": "Armenia",
        "state_code": "AG",
        "type": null,
        "latitude": "40.33473010",
        "longitude": "44.37482960"
    },
    {
        "name": "Ararat Province",
        "country_id": 12,
        "country_code": "AM",
        "country_name": "Armenia",
        "state_code": "AR",
        "type": null,
        "latitude": "39.91394150",
        "longitude": "44.72000040"
    },
    {
        "name": "Armavir Region",
        "country_id": 12,
        "country_code": "AM",
        "country_name": "Armenia",
        "state_code": "AV",
        "type": null,
        "latitude": "40.15546310",
        "longitude": "44.03724460"
    },
    {
        "name": "Gegharkunik Province",
        "country_id": 12,
        "country_code": "AM",
        "country_name": "Armenia",
        "state_code": "GR",
        "type": null,
        "latitude": "40.35264260",
        "longitude": "45.12604140"
    },
    {
        "name": "Kotayk Region",
        "country_id": 12,
        "country_code": "AM",
        "country_name": "Armenia",
        "state_code": "KT",
        "type": null,
        "latitude": "40.54102140",
        "longitude": "44.76901480"
    },
    {
        "name": "Lori Region",
        "country_id": 12,
        "country_code": "AM",
        "country_name": "Armenia",
        "state_code": "LO",
        "type": null,
        "latitude": "40.96984520",
        "longitude": "44.49001380"
    },
    {
        "name": "Shirak Region",
        "country_id": 12,
        "country_code": "AM",
        "country_name": "Armenia",
        "state_code": "SH",
        "type": null,
        "latitude": "40.96308140",
        "longitude": "43.81024610"
    },
    {
        "name": "Syunik Province",
        "country_id": 12,
        "country_code": "AM",
        "country_name": "Armenia",
        "state_code": "SU",
        "type": null,
        "latitude": "39.51331120",
        "longitude": "46.33932340"
    },
    {
        "name": "Tavush Region",
        "country_id": 12,
        "country_code": "AM",
        "country_name": "Armenia",
        "state_code": "TV",
        "type": null,
        "latitude": "40.88662960",
        "longitude": "45.33934900"
    },
    {
        "name": "Vayots Dzor Region",
        "country_id": 12,
        "country_code": "AM",
        "country_name": "Armenia",
        "state_code": "VD",
        "type": null,
        "latitude": "39.76419960",
        "longitude": "45.33375280"
    },
    {
        "name": "Yerevan",
        "country_id": 12,
        "country_code": "AM",
        "country_name": "Armenia",
        "state_code": "ER",
        "type": null,
        "latitude": "40.18720230",
        "longitude": "44.51520900"
    },
    {
        "name": "Australian Capital Territory",
        "country_id": 14,
        "country_code": "AU",
        "country_name": "Australia",
        "state_code": "ACT",
        "type": "territory",
        "latitude": "-35.47346790",
        "longitude": "149.01236790"
    },
    {
        "name": "New South Wales",
        "country_id": 14,
        "country_code": "AU",
        "country_name": "Australia",
        "state_code": "NSW",
        "type": "state",
        "latitude": "-31.25321830",
        "longitude": "146.92109900"
    },
    {
        "name": "Northern Territory",
        "country_id": 14,
        "country_code": "AU",
        "country_name": "Australia",
        "state_code": "NT",
        "type": "territory",
        "latitude": "-19.49141080",
        "longitude": "132.55096030"
    },
    {
        "name": "Queensland",
        "country_id": 14,
        "country_code": "AU",
        "country_name": "Australia",
        "state_code": "QLD",
        "type": "state",
        "latitude": "-20.91757380",
        "longitude": "142.70279560"
    },
    {
        "name": "South Australia",
        "country_id": 14,
        "country_code": "AU",
        "country_name": "Australia",
        "state_code": "SA",
        "type": "state",
        "latitude": "-30.00023150",
        "longitude": "136.20915470"
    },
    {
        "name": "Tasmania",
        "country_id": 14,
        "country_code": "AU",
        "country_name": "Australia",
        "state_code": "TAS",
        "type": "state",
        "latitude": "-41.45451960",
        "longitude": "145.97066470"
    },
    {
        "name": "Victoria",
        "country_id": 14,
        "country_code": "AU",
        "country_name": "Australia",
        "state_code": "VIC",
        "type": "state",
        "latitude": "-36.48564230",
        "longitude": "140.97794250"
    },
    {
        "name": "Western Australia",
        "country_id": 14,
        "country_code": "AU",
        "country_name": "Australia",
        "state_code": "WA",
        "type": "state",
        "latitude": "-27.67281680",
        "longitude": "121.62830980"
    },
    {
        "name": "Burgenland",
        "country_id": 15,
        "country_code": "AT",
        "country_name": "Austria",
        "state_code": "1",
        "type": null,
        "latitude": "47.15371650",
        "longitude": "16.26887970"
    },
    {
        "name": "Carinthia",
        "country_id": 15,
        "country_code": "AT",
        "country_name": "Austria",
        "state_code": "2",
        "type": null,
        "latitude": "46.72220300",
        "longitude": "14.18058820"
    },
    {
        "name": "Lower Austria",
        "country_id": 15,
        "country_code": "AT",
        "country_name": "Austria",
        "state_code": "3",
        "type": null,
        "latitude": "48.10807700",
        "longitude": "15.80495580"
    },
    {
        "name": "Salzburg",
        "country_id": 15,
        "country_code": "AT",
        "country_name": "Austria",
        "state_code": "5",
        "type": null,
        "latitude": "47.80949000",
        "longitude": "13.05501000"
    },
    {
        "name": "Styria",
        "country_id": 15,
        "country_code": "AT",
        "country_name": "Austria",
        "state_code": "6",
        "type": null,
        "latitude": "47.35934420",
        "longitude": "14.46998270"
    },
    {
        "name": "Tyrol",
        "country_id": 15,
        "country_code": "AT",
        "country_name": "Austria",
        "state_code": "7",
        "type": null,
        "latitude": "47.25374140",
        "longitude": "11.60148700"
    },
    {
        "name": "Upper Austria",
        "country_id": 15,
        "country_code": "AT",
        "country_name": "Austria",
        "state_code": "4",
        "type": null,
        "latitude": "48.02585400",
        "longitude": "13.97236650"
    },
    {
        "name": "Vienna",
        "country_id": 15,
        "country_code": "AT",
        "country_name": "Austria",
        "state_code": "9",
        "type": null,
        "latitude": "48.20817430",
        "longitude": "16.37381890"
    },
    {
        "name": "Vorarlberg",
        "country_id": 15,
        "country_code": "AT",
        "country_name": "Austria",
        "state_code": "8",
        "type": null,
        "latitude": "47.24974270",
        "longitude": "9.97973730"
    },
    {
        "name": "Absheron District",
        "country_id": 16,
        "country_code": "AZ",
        "country_name": "Azerbaijan",
        "state_code": "ABS",
        "type": null,
        "latitude": "40.36296930",
        "longitude": "49.27368150"
    },
    {
        "name": "Agdam District",
        "country_id": 16,
        "country_code": "AZ",
        "country_name": "Azerbaijan",
        "state_code": "AGM",
        "type": null,
        "latitude": "39.99318530",
        "longitude": "46.99495620"
    },
    {
        "name": "Agdash District",
        "country_id": 16,
        "country_code": "AZ",
        "country_name": "Azerbaijan",
        "state_code": "AGS",
        "type": null,
        "latitude": "40.63354270",
        "longitude": "47.46743100"
    },
    {
        "name": "Aghjabadi District",
        "country_id": 16,
        "country_code": "AZ",
        "country_name": "Azerbaijan",
        "state_code": "AGC",
        "type": null,
        "latitude": "28.78918410",
        "longitude": "77.51607880"
    },
    {
        "name": "Agstafa District",
        "country_id": 16,
        "country_code": "AZ",
        "country_name": "Azerbaijan",
        "state_code": "AGA",
        "type": null,
        "latitude": "41.26559330",
        "longitude": "45.51342910"
    },
    {
        "name": "Agsu District",
        "country_id": 16,
        "country_code": "AZ",
        "country_name": "Azerbaijan",
        "state_code": "AGU",
        "type": null,
        "latitude": "40.52833390",
        "longitude": "48.36508350"
    },
    {
        "name": "Astara District",
        "country_id": 16,
        "country_code": "AZ",
        "country_name": "Azerbaijan",
        "state_code": "AST",
        "type": null,
        "latitude": "38.49378450",
        "longitude": "48.69443650"
    },
    {
        "name": "Babek District",
        "country_id": 16,
        "country_code": "AZ",
        "country_name": "Azerbaijan",
        "state_code": "BAB",
        "type": null,
        "latitude": "39.15076130",
        "longitude": "45.44853680"
    },
    {
        "name": "Baku",
        "country_id": 16,
        "country_code": "AZ",
        "country_name": "Azerbaijan",
        "state_code": "BA",
        "type": null,
        "latitude": "40.40926170",
        "longitude": "49.86709240"
    },
    {
        "name": "Balakan District",
        "country_id": 16,
        "country_code": "AZ",
        "country_name": "Azerbaijan",
        "state_code": "BAL",
        "type": null,
        "latitude": "41.70375090",
        "longitude": "46.40442130"
    },
    {
        "name": "Barda District",
        "country_id": 16,
        "country_code": "AZ",
        "country_name": "Azerbaijan",
        "state_code": "BAR",
        "type": null,
        "latitude": "40.37065550",
        "longitude": "47.13789090"
    },
    {
        "name": "Beylagan District",
        "country_id": 16,
        "country_code": "AZ",
        "country_name": "Azerbaijan",
        "state_code": "BEY",
        "type": null,
        "latitude": "39.77230730",
        "longitude": "47.61541660"
    },
    {
        "name": "Bilasuvar District",
        "country_id": 16,
        "country_code": "AZ",
        "country_name": "Azerbaijan",
        "state_code": "BIL",
        "type": null,
        "latitude": "39.45988330",
        "longitude": "48.55098130"
    },
    {
        "name": "Dashkasan District",
        "country_id": 16,
        "country_code": "AZ",
        "country_name": "Azerbaijan",
        "state_code": "DAS",
        "type": null,
        "latitude": "40.52022570",
        "longitude": "46.07793040"
    },
    {
        "name": "Fizuli District",
        "country_id": 16,
        "country_code": "AZ",
        "country_name": "Azerbaijan",
        "state_code": "FUZ",
        "type": null,
        "latitude": "39.53786050",
        "longitude": "47.30338770"
    },
    {
        "name": "Ganja",
        "country_id": 16,
        "country_code": "AZ",
        "country_name": "Azerbaijan",
        "state_code": "GA",
        "type": null,
        "latitude": "36.36873380",
        "longitude": "-95.99857670"
    },
    {
        "name": "Gədəbəy",
        "country_id": 16,
        "country_code": "AZ",
        "country_name": "Azerbaijan",
        "state_code": "GAD",
        "type": null,
        "latitude": "40.56996390",
        "longitude": "45.81068830"
    },
    {
        "name": "Gobustan District",
        "country_id": 16,
        "country_code": "AZ",
        "country_name": "Azerbaijan",
        "state_code": "QOB",
        "type": null,
        "latitude": "40.53261040",
        "longitude": "48.92737500"
    },
    {
        "name": "Goranboy District",
        "country_id": 16,
        "country_code": "AZ",
        "country_name": "Azerbaijan",
        "state_code": "GOR",
        "type": null,
        "latitude": "40.53805060",
        "longitude": "46.59908910"
    },
    {
        "name": "Goychay",
        "country_id": 16,
        "country_code": "AZ",
        "country_name": "Azerbaijan",
        "state_code": "GOY",
        "type": null,
        "latitude": "40.62361680",
        "longitude": "47.74030340"
    },
    {
        "name": "Goygol District",
        "country_id": 16,
        "country_code": "AZ",
        "country_name": "Azerbaijan",
        "state_code": "GYG",
        "type": null,
        "latitude": "40.55953780",
        "longitude": "46.33149530"
    },
    {
        "name": "Hajigabul District",
        "country_id": 16,
        "country_code": "AZ",
        "country_name": "Azerbaijan",
        "state_code": "HAC",
        "type": null,
        "latitude": "40.03937700",
        "longitude": "48.92025330"
    },
    {
        "name": "Imishli District",
        "country_id": 16,
        "country_code": "AZ",
        "country_name": "Azerbaijan",
        "state_code": "IMI",
        "type": null,
        "latitude": "39.86946860",
        "longitude": "48.06652180"
    },
    {
        "name": "Ismailli District",
        "country_id": 16,
        "country_code": "AZ",
        "country_name": "Azerbaijan",
        "state_code": "ISM",
        "type": null,
        "latitude": "40.74299360",
        "longitude": "48.21255560"
    },
    {
        "name": "Jabrayil District",
        "country_id": 16,
        "country_code": "AZ",
        "country_name": "Azerbaijan",
        "state_code": "CAB",
        "type": null,
        "latitude": "39.26455440",
        "longitude": "46.96215620"
    },
    {
        "name": "Jalilabad District",
        "country_id": 16,
        "country_code": "AZ",
        "country_name": "Azerbaijan",
        "state_code": "CAL",
        "type": null,
        "latitude": "39.20516320",
        "longitude": "48.51006040"
    },
    {
        "name": "Julfa District",
        "country_id": 16,
        "country_code": "AZ",
        "country_name": "Azerbaijan",
        "state_code": "CUL",
        "type": null,
        "latitude": "38.96049830",
        "longitude": "45.62929390"
    },
    {
        "name": "Kalbajar District",
        "country_id": 16,
        "country_code": "AZ",
        "country_name": "Azerbaijan",
        "state_code": "KAL",
        "type": null,
        "latitude": "40.10243290",
        "longitude": "46.03648720"
    },
    {
        "name": "Kangarli District",
        "country_id": 16,
        "country_code": "AZ",
        "country_name": "Azerbaijan",
        "state_code": "KAN",
        "type": null,
        "latitude": "39.38719400",
        "longitude": "45.16398520"
    },
    {
        "name": "Khachmaz District",
        "country_id": 16,
        "country_code": "AZ",
        "country_name": "Azerbaijan",
        "state_code": "XAC",
        "type": null,
        "latitude": "41.45911680",
        "longitude": "48.80206260"
    },
    {
        "name": "Khizi District",
        "country_id": 16,
        "country_code": "AZ",
        "country_name": "Azerbaijan",
        "state_code": "XIZ",
        "type": null,
        "latitude": "40.91094890",
        "longitude": "49.07292640"
    },
    {
        "name": "Khojali District",
        "country_id": 16,
        "country_code": "AZ",
        "country_name": "Azerbaijan",
        "state_code": "XCI",
        "type": null,
        "latitude": "39.91325530",
        "longitude": "46.79430500"
    },
    {
        "name": "Kurdamir District",
        "country_id": 16,
        "country_code": "AZ",
        "country_name": "Azerbaijan",
        "state_code": "KUR",
        "type": null,
        "latitude": "40.36986510",
        "longitude": "48.16446260"
    },
    {
        "name": "Lachin District",
        "country_id": 16,
        "country_code": "AZ",
        "country_name": "Azerbaijan",
        "state_code": "LAC",
        "type": null,
        "latitude": "39.63834140",
        "longitude": "46.54608530"
    },
    {
        "name": "Lankaran",
        "country_id": 16,
        "country_code": "AZ",
        "country_name": "Azerbaijan",
        "state_code": "LAN",
        "type": null,
        "latitude": "38.75286690",
        "longitude": "48.84750150"
    },
    {
        "name": "Lankaran District",
        "country_id": 16,
        "country_code": "AZ",
        "country_name": "Azerbaijan",
        "state_code": "LA",
        "type": null,
        "latitude": "38.75286690",
        "longitude": "48.84750150"
    },
    {
        "name": "Lerik District",
        "country_id": 16,
        "country_code": "AZ",
        "country_name": "Azerbaijan",
        "state_code": "LER",
        "type": null,
        "latitude": "38.77361920",
        "longitude": "48.41514830"
    },
    {
        "name": "Martuni",
        "country_id": 16,
        "country_code": "AZ",
        "country_name": "Azerbaijan",
        "state_code": "XVD",
        "type": null,
        "latitude": "39.79146930",
        "longitude": "47.11008140"
    },
    {
        "name": "Masally District",
        "country_id": 16,
        "country_code": "AZ",
        "country_name": "Azerbaijan",
        "state_code": "MAS",
        "type": null,
        "latitude": "39.03407220",
        "longitude": "48.65893540"
    },
    {
        "name": "Mingachevir",
        "country_id": 16,
        "country_code": "AZ",
        "country_name": "Azerbaijan",
        "state_code": "MI",
        "type": null,
        "latitude": "40.77025630",
        "longitude": "47.04960150"
    },
    {
        "name": "Nakhchivan Autonomous Republic",
        "country_id": 16,
        "country_code": "AZ",
        "country_name": "Azerbaijan",
        "state_code": "NX",
        "type": null,
        "latitude": "39.32568140",
        "longitude": "45.49126480"
    },
    {
        "name": "Neftchala District",
        "country_id": 16,
        "country_code": "AZ",
        "country_name": "Azerbaijan",
        "state_code": "NEF",
        "type": null,
        "latitude": "39.38810520",
        "longitude": "49.24137430"
    },
    {
        "name": "Oghuz District",
        "country_id": 16,
        "country_code": "AZ",
        "country_name": "Azerbaijan",
        "state_code": "OGU",
        "type": null,
        "latitude": "41.07279240",
        "longitude": "47.46506720"
    },
    {
        "name": "Ordubad District",
        "country_id": 16,
        "country_code": "AZ",
        "country_name": "Azerbaijan",
        "state_code": "ORD",
        "type": null,
        "latitude": "38.90216220",
        "longitude": "46.02376250"
    },
    {
        "name": "Qabala District",
        "country_id": 16,
        "country_code": "AZ",
        "country_name": "Azerbaijan",
        "state_code": "QAB",
        "type": null,
        "latitude": "40.92539250",
        "longitude": "47.80161060"
    },
    {
        "name": "Qakh District",
        "country_id": 16,
        "country_code": "AZ",
        "country_name": "Azerbaijan",
        "state_code": "QAX",
        "type": null,
        "latitude": "41.42068270",
        "longitude": "46.93201840"
    },
    {
        "name": "Qazakh District",
        "country_id": 16,
        "country_code": "AZ",
        "country_name": "Azerbaijan",
        "state_code": "QAZ",
        "type": null,
        "latitude": "41.09710740",
        "longitude": "45.35163310"
    },
    {
        "name": "Quba District",
        "country_id": 16,
        "country_code": "AZ",
        "country_name": "Azerbaijan",
        "state_code": "QBA",
        "type": null,
        "latitude": "41.15642420",
        "longitude": "48.41350210"
    },
    {
        "name": "Qubadli District",
        "country_id": 16,
        "country_code": "AZ",
        "country_name": "Azerbaijan",
        "state_code": "QBI",
        "type": null,
        "latitude": "39.27139960",
        "longitude": "46.63543120"
    },
    {
        "name": "Qusar District",
        "country_id": 16,
        "country_code": "AZ",
        "country_name": "Azerbaijan",
        "state_code": "QUS",
        "type": null,
        "latitude": "41.42668860",
        "longitude": "48.43455770"
    },
    {
        "name": "Saatly District",
        "country_id": 16,
        "country_code": "AZ",
        "country_name": "Azerbaijan",
        "state_code": "SAT",
        "type": null,
        "latitude": "39.90955030",
        "longitude": "48.35951220"
    },
    {
        "name": "Sabirabad District",
        "country_id": 16,
        "country_code": "AZ",
        "country_name": "Azerbaijan",
        "state_code": "SAB",
        "type": null,
        "latitude": "39.98706630",
        "longitude": "48.46925450"
    },
    {
        "name": "Sadarak District",
        "country_id": 16,
        "country_code": "AZ",
        "country_name": "Azerbaijan",
        "state_code": "SAD",
        "type": null,
        "latitude": "39.71051140",
        "longitude": "44.88642770"
    },
    {
        "name": "Salyan District",
        "country_id": 16,
        "country_code": "AZ",
        "country_name": "Azerbaijan",
        "state_code": "SAL",
        "type": null,
        "latitude": "28.35248110",
        "longitude": "82.12784000"
    },
    {
        "name": "Samukh District",
        "country_id": 16,
        "country_code": "AZ",
        "country_name": "Azerbaijan",
        "state_code": "SMX",
        "type": null,
        "latitude": "40.76046310",
        "longitude": "46.40631810"
    },
    {
        "name": "Shabran District",
        "country_id": 16,
        "country_code": "AZ",
        "country_name": "Azerbaijan",
        "state_code": "SBN",
        "type": null,
        "latitude": "41.22283760",
        "longitude": "48.84573040"
    },
    {
        "name": "Shahbuz District",
        "country_id": 16,
        "country_code": "AZ",
        "country_name": "Azerbaijan",
        "state_code": "SAH",
        "type": null,
        "latitude": "39.44521030",
        "longitude": "45.65680090"
    },
    {
        "name": "Shaki",
        "country_id": 16,
        "country_code": "AZ",
        "country_name": "Azerbaijan",
        "state_code": "SA",
        "type": null,
        "latitude": "41.19747530",
        "longitude": "47.15712410"
    },
    {
        "name": "Shaki District",
        "country_id": 16,
        "country_code": "AZ",
        "country_name": "Azerbaijan",
        "state_code": "SAK",
        "type": null,
        "latitude": "41.11346620",
        "longitude": "47.13169270"
    },
    {
        "name": "Shamakhi District",
        "country_id": 16,
        "country_code": "AZ",
        "country_name": "Azerbaijan",
        "state_code": "SMI",
        "type": null,
        "latitude": "40.63187310",
        "longitude": "48.63638010"
    },
    {
        "name": "Shamkir District",
        "country_id": 16,
        "country_code": "AZ",
        "country_name": "Azerbaijan",
        "state_code": "SKR",
        "type": null,
        "latitude": "40.82881440",
        "longitude": "46.01668790"
    },
    {
        "name": "Sharur District",
        "country_id": 16,
        "country_code": "AZ",
        "country_name": "Azerbaijan",
        "state_code": "SAR",
        "type": null,
        "latitude": "39.55363320",
        "longitude": "44.98456800"
    },
    {
        "name": "Shirvan",
        "country_id": 16,
        "country_code": "AZ",
        "country_name": "Azerbaijan",
        "state_code": "SR",
        "type": null,
        "latitude": "39.94697070",
        "longitude": "48.92239190"
    },
    {
        "name": "Shusha District",
        "country_id": 16,
        "country_code": "AZ",
        "country_name": "Azerbaijan",
        "state_code": "SUS",
        "type": null,
        "latitude": "39.75374380",
        "longitude": "46.74647550"
    },
    {
        "name": "Siazan District",
        "country_id": 16,
        "country_code": "AZ",
        "country_name": "Azerbaijan",
        "state_code": "SIY",
        "type": null,
        "latitude": "41.07838330",
        "longitude": "49.11184770"
    },
    {
        "name": "Sumqayit",
        "country_id": 16,
        "country_code": "AZ",
        "country_name": "Azerbaijan",
        "state_code": "SM",
        "type": null,
        "latitude": "40.58547650",
        "longitude": "49.63174110"
    },
    {
        "name": "Tartar District",
        "country_id": 16,
        "country_code": "AZ",
        "country_name": "Azerbaijan",
        "state_code": "TAR",
        "type": null,
        "latitude": "40.34438750",
        "longitude": "46.93765190"
    },
    {
        "name": "Tovuz District",
        "country_id": 16,
        "country_code": "AZ",
        "country_name": "Azerbaijan",
        "state_code": "TOV",
        "type": null,
        "latitude": "40.99545230",
        "longitude": "45.61659070"
    },
    {
        "name": "Ujar District",
        "country_id": 16,
        "country_code": "AZ",
        "country_name": "Azerbaijan",
        "state_code": "UCA",
        "type": null,
        "latitude": "40.50675250",
        "longitude": "47.64896410"
    },
    {
        "name": "Yardymli District",
        "country_id": 16,
        "country_code": "AZ",
        "country_name": "Azerbaijan",
        "state_code": "YAR",
        "type": null,
        "latitude": "38.90589170",
        "longitude": "48.24961270"
    },
    {
        "name": "Yevlakh",
        "country_id": 16,
        "country_code": "AZ",
        "country_name": "Azerbaijan",
        "state_code": "YE",
        "type": null,
        "latitude": "40.61966380",
        "longitude": "47.15003240"
    },
    {
        "name": "Yevlakh District",
        "country_id": 16,
        "country_code": "AZ",
        "country_name": "Azerbaijan",
        "state_code": "YEV",
        "type": null,
        "latitude": "40.61966380",
        "longitude": "47.15003240"
    },
    {
        "name": "Zangilan District",
        "country_id": 16,
        "country_code": "AZ",
        "country_name": "Azerbaijan",
        "state_code": "ZAN",
        "type": null,
        "latitude": "39.08568990",
        "longitude": "46.65247280"
    },
    {
        "name": "Zaqatala District",
        "country_id": 16,
        "country_code": "AZ",
        "country_name": "Azerbaijan",
        "state_code": "ZAQ",
        "type": null,
        "latitude": "41.59068890",
        "longitude": "46.72403730"
    },
    {
        "name": "Zardab District",
        "country_id": 16,
        "country_code": "AZ",
        "country_name": "Azerbaijan",
        "state_code": "ZAR",
        "type": null,
        "latitude": "40.21481140",
        "longitude": "47.71494400"
    },
    {
        "name": "Capital Governorate",
        "country_id": 18,
        "country_code": "BH",
        "country_name": "Bahrain",
        "state_code": "13",
        "type": null,
        "latitude": null,
        "longitude": null
    },
    {
        "name": "Central Governorate",
        "country_id": 18,
        "country_code": "BH",
        "country_name": "Bahrain",
        "state_code": "16",
        "type": null,
        "latitude": "26.14260930",
        "longitude": "50.56532940"
    },
    {
        "name": "Muharraq Governorate",
        "country_id": 18,
        "country_code": "BH",
        "country_name": "Bahrain",
        "state_code": "15",
        "type": null,
        "latitude": "26.26856530",
        "longitude": "50.64825170"
    },
    {
        "name": "Northern Governorate",
        "country_id": 18,
        "country_code": "BH",
        "country_name": "Bahrain",
        "state_code": "17",
        "type": null,
        "latitude": "26.15519140",
        "longitude": "50.48251730"
    },
    {
        "name": "Southern Governorate",
        "country_id": 18,
        "country_code": "BH",
        "country_name": "Bahrain",
        "state_code": "14",
        "type": null,
        "latitude": "25.93810180",
        "longitude": "50.57568870"
    },
    {
        "name": "Bagerhat District",
        "country_id": 19,
        "country_code": "BD",
        "country_name": "Bangladesh",
        "state_code": "05",
        "type": null,
        "latitude": "22.66024360",
        "longitude": "89.78954780"
    },
    {
        "name": "Bahadia",
        "country_id": 19,
        "country_code": "BD",
        "country_name": "Bangladesh",
        "state_code": "33",
        "type": null,
        "latitude": "23.78987120",
        "longitude": "90.16714830"
    },
    {
        "name": "Bandarban District",
        "country_id": 19,
        "country_code": "BD",
        "country_name": "Bangladesh",
        "state_code": "01",
        "type": null,
        "latitude": "21.83110020",
        "longitude": "92.36863210"
    },
    {
        "name": "Barguna District",
        "country_id": 19,
        "country_code": "BD",
        "country_name": "Bangladesh",
        "state_code": "02",
        "type": null,
        "latitude": "22.09529150",
        "longitude": "90.11206960"
    },
    {
        "name": "Barisal District",
        "country_id": 19,
        "country_code": "BD",
        "country_name": "Bangladesh",
        "state_code": "06",
        "type": null,
        "latitude": "22.70220980",
        "longitude": "90.36963160"
    },
    {
        "name": "Barisal Division",
        "country_id": 19,
        "country_code": "BD",
        "country_name": "Bangladesh",
        "state_code": "A",
        "type": null,
        "latitude": "22.38111310",
        "longitude": "90.33718890"
    },
    {
        "name": "Bhola District",
        "country_id": 19,
        "country_code": "BD",
        "country_name": "Bangladesh",
        "state_code": "07",
        "type": null,
        "latitude": "22.17853150",
        "longitude": "90.71010230"
    },
    {
        "name": "Bogra District",
        "country_id": 19,
        "country_code": "BD",
        "country_name": "Bangladesh",
        "state_code": "03",
        "type": null,
        "latitude": "24.85104020",
        "longitude": "89.36972250"
    },
    {
        "name": "Brahmanbaria District",
        "country_id": 19,
        "country_code": "BD",
        "country_name": "Bangladesh",
        "state_code": "04",
        "type": null,
        "latitude": "23.96081810",
        "longitude": "91.11150140"
    },
    {
        "name": "Chandpur District",
        "country_id": 19,
        "country_code": "BD",
        "country_name": "Bangladesh",
        "state_code": "09",
        "type": null,
        "latitude": "23.25131480",
        "longitude": "90.85178460"
    },
    {
        "name": "Chapai Nawabganj District",
        "country_id": 19,
        "country_code": "BD",
        "country_name": "Bangladesh",
        "state_code": "45",
        "type": null,
        "latitude": "24.74131110",
        "longitude": "88.29120690"
    },
    {
        "name": "Chittagong District",
        "country_id": 19,
        "country_code": "BD",
        "country_name": "Bangladesh",
        "state_code": "10",
        "type": null,
        "latitude": "22.51501050",
        "longitude": "91.75388170"
    },
    {
        "name": "Chittagong Division",
        "country_id": 19,
        "country_code": "BD",
        "country_name": "Bangladesh",
        "state_code": "B",
        "type": null,
        "latitude": "23.17931570",
        "longitude": "91.98815270"
    },
    {
        "name": "Chuadanga District",
        "country_id": 19,
        "country_code": "BD",
        "country_name": "Bangladesh",
        "state_code": "12",
        "type": null,
        "latitude": "23.61605120",
        "longitude": "88.82630060"
    },
    {
        "name": "Comilla District",
        "country_id": 19,
        "country_code": "BD",
        "country_name": "Bangladesh",
        "state_code": "08",
        "type": null,
        "latitude": "23.45756670",
        "longitude": "91.18089960"
    },
    {
        "name": "Cox's Bazar District",
        "country_id": 19,
        "country_code": "BD",
        "country_name": "Bangladesh",
        "state_code": "11",
        "type": null,
        "latitude": "21.56406260",
        "longitude": "92.02821290"
    },
    {
        "name": "Dhaka District",
        "country_id": 19,
        "country_code": "BD",
        "country_name": "Bangladesh",
        "state_code": "13",
        "type": null,
        "latitude": "23.81051400",
        "longitude": "90.33718890"
    },
    {
        "name": "Dhaka Division",
        "country_id": 19,
        "country_code": "BD",
        "country_name": "Bangladesh",
        "state_code": "C",
        "type": null,
        "latitude": "23.95357420",
        "longitude": "90.14949880"
    },
    {
        "name": "Dinajpur District",
        "country_id": 19,
        "country_code": "BD",
        "country_name": "Bangladesh",
        "state_code": "14",
        "type": null,
        "latitude": "25.62791230",
        "longitude": "88.63317580"
    },
    {
        "name": "Faridpur District",
        "country_id": 19,
        "country_code": "BD",
        "country_name": "Bangladesh",
        "state_code": "15",
        "type": null,
        "latitude": "23.54239190",
        "longitude": "89.63089210"
    },
    {
        "name": "Feni District",
        "country_id": 19,
        "country_code": "BD",
        "country_name": "Bangladesh",
        "state_code": "16",
        "type": null,
        "latitude": "22.94087840",
        "longitude": "91.40666460"
    },
    {
        "name": "Gaibandha District",
        "country_id": 19,
        "country_code": "BD",
        "country_name": "Bangladesh",
        "state_code": "19",
        "type": null,
        "latitude": "25.32969280",
        "longitude": "89.54296520"
    },
    {
        "name": "Gazipur District",
        "country_id": 19,
        "country_code": "BD",
        "country_name": "Bangladesh",
        "state_code": "18",
        "type": null,
        "latitude": "24.09581710",
        "longitude": "90.41251810"
    },
    {
        "name": "Gopalganj District",
        "country_id": 19,
        "country_code": "BD",
        "country_name": "Bangladesh",
        "state_code": "17",
        "type": null,
        "latitude": "26.48315840",
        "longitude": "84.43655000"
    },
    {
        "name": "Habiganj District",
        "country_id": 19,
        "country_code": "BD",
        "country_name": "Bangladesh",
        "state_code": "20",
        "type": null,
        "latitude": "24.47712360",
        "longitude": "91.45065650"
    },
    {
        "name": "Jamalpur District",
        "country_id": 19,
        "country_code": "BD",
        "country_name": "Bangladesh",
        "state_code": "21",
        "type": null,
        "latitude": "25.08309260",
        "longitude": "89.78532180"
    },
    {
        "name": "Jessore District",
        "country_id": 19,
        "country_code": "BD",
        "country_name": "Bangladesh",
        "state_code": "22",
        "type": null,
        "latitude": "23.16340140",
        "longitude": "89.21816640"
    },
    {
        "name": "Jhalokati District",
        "country_id": 19,
        "country_code": "BD",
        "country_name": "Bangladesh",
        "state_code": "25",
        "type": null,
        "latitude": "22.57208000",
        "longitude": "90.18696440"
    },
    {
        "name": "Jhenaidah District",
        "country_id": 19,
        "country_code": "BD",
        "country_name": "Bangladesh",
        "state_code": "23",
        "type": null,
        "latitude": "23.54498730",
        "longitude": "89.17260310"
    },
    {
        "name": "Joypurhat District",
        "country_id": 19,
        "country_code": "BD",
        "country_name": "Bangladesh",
        "state_code": "24",
        "type": null,
        "latitude": "25.09473490",
        "longitude": "89.09449370"
    },
    {
        "name": "Khagrachari District",
        "country_id": 19,
        "country_code": "BD",
        "country_name": "Bangladesh",
        "state_code": "29",
        "type": null,
        "latitude": "23.13217510",
        "longitude": "91.94902100"
    },
    {
        "name": "Khulna District",
        "country_id": 19,
        "country_code": "BD",
        "country_name": "Bangladesh",
        "state_code": "27",
        "type": null,
        "latitude": "22.67377350",
        "longitude": "89.39665810"
    },
    {
        "name": "Khulna Division",
        "country_id": 19,
        "country_code": "BD",
        "country_name": "Bangladesh",
        "state_code": "D",
        "type": null,
        "latitude": "22.80878160",
        "longitude": "89.24671910"
    },
    {
        "name": "Kishoreganj District",
        "country_id": 19,
        "country_code": "BD",
        "country_name": "Bangladesh",
        "state_code": "26",
        "type": null,
        "latitude": "24.42604570",
        "longitude": "90.98206680"
    },
    {
        "name": "Kurigram District",
        "country_id": 19,
        "country_code": "BD",
        "country_name": "Bangladesh",
        "state_code": "28",
        "type": null,
        "latitude": "25.80724140",
        "longitude": "89.62947460"
    },
    {
        "name": "Kushtia District",
        "country_id": 19,
        "country_code": "BD",
        "country_name": "Bangladesh",
        "state_code": "30",
        "type": null,
        "latitude": "23.89069950",
        "longitude": "89.10993680"
    },
    {
        "name": "Lakshmipur District",
        "country_id": 19,
        "country_code": "BD",
        "country_name": "Bangladesh",
        "state_code": "31",
        "type": null,
        "latitude": "22.94467440",
        "longitude": "90.82819070"
    },
    {
        "name": "Lalmonirhat District",
        "country_id": 19,
        "country_code": "BD",
        "country_name": "Bangladesh",
        "state_code": "32",
        "type": null,
        "latitude": "25.99233980",
        "longitude": "89.28472510"
    },
    {
        "name": "Madaripur District",
        "country_id": 19,
        "country_code": "BD",
        "country_name": "Bangladesh",
        "state_code": "36",
        "type": null,
        "latitude": "23.23933460",
        "longitude": "90.18696440"
    },
    {
        "name": "Meherpur District",
        "country_id": 19,
        "country_code": "BD",
        "country_name": "Bangladesh",
        "state_code": "39",
        "type": null,
        "latitude": "23.80519910",
        "longitude": "88.67235780"
    },
    {
        "name": "Moulvibazar District",
        "country_id": 19,
        "country_code": "BD",
        "country_name": "Bangladesh",
        "state_code": "38",
        "type": null,
        "latitude": "24.30953440",
        "longitude": "91.73149030"
    },
    {
        "name": "Munshiganj District",
        "country_id": 19,
        "country_code": "BD",
        "country_name": "Bangladesh",
        "state_code": "35",
        "type": null,
        "latitude": "23.49809310",
        "longitude": "90.41266210"
    },
    {
        "name": "Mymensingh District",
        "country_id": 19,
        "country_code": "BD",
        "country_name": "Bangladesh",
        "state_code": "34",
        "type": null,
        "latitude": "24.75385750",
        "longitude": "90.40729190"
    },
    {
        "name": "Mymensingh Division",
        "country_id": 19,
        "country_code": "BD",
        "country_name": "Bangladesh",
        "state_code": "H",
        "type": null,
        "latitude": "24.71362000",
        "longitude": "90.45023680"
    },
    {
        "name": "Naogaon District",
        "country_id": 19,
        "country_code": "BD",
        "country_name": "Bangladesh",
        "state_code": "48",
        "type": null,
        "latitude": "24.91315970",
        "longitude": "88.75309520"
    },
    {
        "name": "Narail District",
        "country_id": 19,
        "country_code": "BD",
        "country_name": "Bangladesh",
        "state_code": "43",
        "type": null,
        "latitude": "23.11629290",
        "longitude": "89.58404040"
    },
    {
        "name": "Narayanganj District",
        "country_id": 19,
        "country_code": "BD",
        "country_name": "Bangladesh",
        "state_code": "40",
        "type": null,
        "latitude": "23.71466010",
        "longitude": "90.56360900"
    },
    {
        "name": "Natore District",
        "country_id": 19,
        "country_code": "BD",
        "country_name": "Bangladesh",
        "state_code": "44",
        "type": null,
        "latitude": "24.41024300",
        "longitude": "89.00761770"
    },
    {
        "name": "Netrokona District",
        "country_id": 19,
        "country_code": "BD",
        "country_name": "Bangladesh",
        "state_code": "41",
        "type": null,
        "latitude": "24.81032840",
        "longitude": "90.86564150"
    },
    {
        "name": "Nilphamari District",
        "country_id": 19,
        "country_code": "BD",
        "country_name": "Bangladesh",
        "state_code": "46",
        "type": null,
        "latitude": "25.84827980",
        "longitude": "88.94141340"
    },
    {
        "name": "Noakhali District",
        "country_id": 19,
        "country_code": "BD",
        "country_name": "Bangladesh",
        "state_code": "47",
        "type": null,
        "latitude": "22.87237890",
        "longitude": "91.09731840"
    },
    {
        "name": "Pabna District",
        "country_id": 19,
        "country_code": "BD",
        "country_name": "Bangladesh",
        "state_code": "49",
        "type": null,
        "latitude": "24.15850500",
        "longitude": "89.44807180"
    },
    {
        "name": "Panchagarh District",
        "country_id": 19,
        "country_code": "BD",
        "country_name": "Bangladesh",
        "state_code": "52",
        "type": null,
        "latitude": "26.27087050",
        "longitude": "88.59517510"
    },
    {
        "name": "Patuakhali District",
        "country_id": 19,
        "country_code": "BD",
        "country_name": "Bangladesh",
        "state_code": "51",
        "type": null,
        "latitude": "22.22486320",
        "longitude": "90.45475030"
    },
    {
        "name": "Pirojpur District",
        "country_id": 19,
        "country_code": "BD",
        "country_name": "Bangladesh",
        "state_code": "50",
        "type": null,
        "latitude": "22.57907440",
        "longitude": "89.97592640"
    },
    {
        "name": "Rajbari District",
        "country_id": 19,
        "country_code": "BD",
        "country_name": "Bangladesh",
        "state_code": "53",
        "type": null,
        "latitude": "23.71513400",
        "longitude": "89.58748190"
    },
    {
        "name": "Rajshahi District",
        "country_id": 19,
        "country_code": "BD",
        "country_name": "Bangladesh",
        "state_code": "54",
        "type": null,
        "latitude": "24.37330870",
        "longitude": "88.60487160"
    },
    {
        "name": "Rajshahi Division",
        "country_id": 19,
        "country_code": "BD",
        "country_name": "Bangladesh",
        "state_code": "E",
        "type": null,
        "latitude": "24.71057760",
        "longitude": "88.94138650"
    },
    {
        "name": "Rangamati Hill District",
        "country_id": 19,
        "country_code": "BD",
        "country_name": "Bangladesh",
        "state_code": "56",
        "type": null,
        "latitude": "22.73241730",
        "longitude": "92.29851340"
    },
    {
        "name": "Rangpur District",
        "country_id": 19,
        "country_code": "BD",
        "country_name": "Bangladesh",
        "state_code": "55",
        "type": null,
        "latitude": "25.74679250",
        "longitude": "89.25083350"
    },
    {
        "name": "Rangpur Division",
        "country_id": 19,
        "country_code": "BD",
        "country_name": "Bangladesh",
        "state_code": "F",
        "type": null,
        "latitude": "25.84833880",
        "longitude": "88.94138650"
    },
    {
        "name": "Satkhira District",
        "country_id": 19,
        "country_code": "BD",
        "country_name": "Bangladesh",
        "state_code": "58",
        "type": null,
        "latitude": "22.31548120",
        "longitude": "89.11145250"
    },
    {
        "name": "Shariatpur District",
        "country_id": 19,
        "country_code": "BD",
        "country_name": "Bangladesh",
        "state_code": "62",
        "type": null,
        "latitude": "23.24232140",
        "longitude": "90.43477110"
    },
    {
        "name": "Sherpur District",
        "country_id": 19,
        "country_code": "BD",
        "country_name": "Bangladesh",
        "state_code": "57",
        "type": null,
        "latitude": "25.07462350",
        "longitude": "90.14949040"
    },
    {
        "name": "Sirajganj District",
        "country_id": 19,
        "country_code": "BD",
        "country_name": "Bangladesh",
        "state_code": "59",
        "type": null,
        "latitude": "24.31411150",
        "longitude": "89.56996150"
    },
    {
        "name": "Sunamganj District",
        "country_id": 19,
        "country_code": "BD",
        "country_name": "Bangladesh",
        "state_code": "61",
        "type": null,
        "latitude": "25.07145350",
        "longitude": "91.39916270"
    },
    {
        "name": "Sylhet District",
        "country_id": 19,
        "country_code": "BD",
        "country_name": "Bangladesh",
        "state_code": "60",
        "type": null,
        "latitude": "24.89933570",
        "longitude": "91.87004730"
    },
    {
        "name": "Sylhet Division",
        "country_id": 19,
        "country_code": "BD",
        "country_name": "Bangladesh",
        "state_code": "G",
        "type": null,
        "latitude": "24.70498110",
        "longitude": "91.67606910"
    },
    {
        "name": "Tangail District",
        "country_id": 19,
        "country_code": "BD",
        "country_name": "Bangladesh",
        "state_code": "63",
        "type": null,
        "latitude": "24.39174270",
        "longitude": "89.99482570"
    },
    {
        "name": "Thakurgaon District",
        "country_id": 19,
        "country_code": "BD",
        "country_name": "Bangladesh",
        "state_code": "64",
        "type": null,
        "latitude": "26.04183920",
        "longitude": "88.42826160"
    },
    {
        "name": "Christ Church",
        "country_id": 20,
        "country_code": "BB",
        "country_name": "Barbados",
        "state_code": "01",
        "type": null,
        "latitude": "36.00604070",
        "longitude": "-95.92112100"
    },
    {
        "name": "Saint Andrew",
        "country_id": 20,
        "country_code": "BB",
        "country_name": "Barbados",
        "state_code": "02",
        "type": null,
        "latitude": null,
        "longitude": null
    },
    {
        "name": "Saint George",
        "country_id": 20,
        "country_code": "BB",
        "country_name": "Barbados",
        "state_code": "03",
        "type": null,
        "latitude": "37.09652780",
        "longitude": "-113.56841640"
    },
    {
        "name": "Saint James",
        "country_id": 20,
        "country_code": "BB",
        "country_name": "Barbados",
        "state_code": "04",
        "type": null,
        "latitude": "48.52356600",
        "longitude": "-1.32378850"
    },
    {
        "name": "Saint John",
        "country_id": 20,
        "country_code": "BB",
        "country_name": "Barbados",
        "state_code": "05",
        "type": null,
        "latitude": "45.27331530",
        "longitude": "-66.06330800"
    },
    {
        "name": "Saint Joseph",
        "country_id": 20,
        "country_code": "BB",
        "country_name": "Barbados",
        "state_code": "06",
        "type": null,
        "latitude": "39.76745780",
        "longitude": "-94.84668100"
    },
    {
        "name": "Saint Lucy",
        "country_id": 20,
        "country_code": "BB",
        "country_name": "Barbados",
        "state_code": "07",
        "type": null,
        "latitude": "38.76146250",
        "longitude": "-77.44914390"
    },
    {
        "name": "Saint Michael",
        "country_id": 20,
        "country_code": "BB",
        "country_name": "Barbados",
        "state_code": "08",
        "type": null,
        "latitude": "36.03597700",
        "longitude": "-95.84905200"
    },
    {
        "name": "Saint Peter",
        "country_id": 20,
        "country_code": "BB",
        "country_name": "Barbados",
        "state_code": "09",
        "type": null,
        "latitude": "37.08271190",
        "longitude": "-94.51712500"
    },
    {
        "name": "Saint Philip",
        "country_id": 20,
        "country_code": "BB",
        "country_name": "Barbados",
        "state_code": "10",
        "type": null,
        "latitude": "35.23311400",
        "longitude": "-89.43640420"
    },
    {
        "name": "Saint Thomas",
        "country_id": 20,
        "country_code": "BB",
        "country_name": "Barbados",
        "state_code": "11",
        "type": null,
        "latitude": "18.33809650",
        "longitude": "-64.89409460"
    },
    {
        "name": "Brest Region",
        "country_id": 21,
        "country_code": "BY",
        "country_name": "Belarus",
        "state_code": "BR",
        "type": null,
        "latitude": "52.52966410",
        "longitude": "25.46064800"
    },
    {
        "name": "Gomel Region",
        "country_id": 21,
        "country_code": "BY",
        "country_name": "Belarus",
        "state_code": "HO",
        "type": null,
        "latitude": "52.16487540",
        "longitude": "29.13332510"
    },
    {
        "name": "Grodno Region",
        "country_id": 21,
        "country_code": "BY",
        "country_name": "Belarus",
        "state_code": "HR",
        "type": null,
        "latitude": "53.65999450",
        "longitude": "25.34485710"
    },